,Stop_ID,Stop_name,Line_ID,Average_headway,Average_dwell_time,Average_abs_schedule_deviation,Average_waiting_time_per_stop,Total_pass_boarding,Standard_deviation_headway,Standard_deviation_dwell_time,Share_on_time,Share_early,Share_late,Total_pass_riding_time,Total_pass_dwell_time,Total_pass_waiting_time,Total_pass_holding_time,Total_pass_weighted_in_vehicle_time,Unnamed: 18
5001,Isolatorweg,50,449.98400000000004,16.4693,0.11,0.0,17.8125,1.8169099999999998,1.38505,1.0,0.0,0.0,0.0,9922.52,128250.0,-2.96225e-11,0,0.0,
5002,Station_Sloterdijk,50,449.969,18.028,2.4831,0.0,37.5,3.85069,2.71487,1.0,0.0,0.0,57570.0,32142.0,270006.0,1.49756e-10,0,85226.4,
5003,Burg_De_Vlugtlaan,50,449.95300000000003,16.3735,4.27514,0.0,11.3438,5.56303,1.30166,1.0,0.0,0.0,158570.0,29501.4,81746.3,-1.57439e-11,0,178668.0,
5004,Jan_van_Galenstraat,50,450.13,16.4669,6.43038,0.0,15.0,7.3228,1.28325,1.0,0.0,0.0,173619.0,36000.7,104806.0,8.89848e-11,0,199139.0,
5005,Postjesweg,50,450.162,16.0065,8.813080000000001,0.0,4.19355,8.87411,1.01169,1.0,0.0,0.0,85690.0,32790.2,29307.9,-3.82638e-10,0,112556.0,
5006,Station_Lelylaan,50,450.195,16.6181,11.6023,0.0,18.3548,10.5479,1.40939,1.0,0.0,0.0,202707.0,44379.0,128323.0,-3.40812e-11,0,234732.0,
5007,Heemstedestraat,50,450.227,16.0398,14.0562,0.0,2.06452,12.06,0.9862549999999999,1.0,0.0,0.0,103976.0,37150.1,14398.0,-3.06239e-10,0,134070.0,
5008,Henk_Sneevlietweg,50,450.26,17.1042,16.9559,0.0,25.1613,13.790999999999999,1.7907099999999998,1.0,0.0,0.0,228866.0,54213.3,175771.0,-3.67137e-11,0,272356.0,
5009,Amstelreenseweg,50,450.63800000000003,16.7753,18.7275,0.0,11.3667,15.722999999999999,1.5009,1.0,0.0,0.0,474145.0,48960.8,76980.0,1.20803e-10,0,526133.0,
5010,Station_Zuid,50,450.689,17.9616,21.0921,8.8,22.8333,15.6189,2.39586,1.0,0.0,0.0,444682.0,54969.5,154429.0,2.0502400000000001e-10,0,474669.0,
5010,Station_Zuid,51,451.094,16.5558,58.6478,6.92857,17.9643,31.438000000000002,1.0848,0.5,0.5,0.0,546533.0,47467.4,113570.0,1.27514e-10,0,720650.0,
5011,Station_RAI,50,450.70300000000003,16.8024,22.1884,12.8333,9.66667,15.3706,1.54413,1.0,0.0,0.0,113529.0,42624.4,65433.6,1.6692399999999999e-10,0,148346.0,
5011,Station_RAI,51,451.162,16.9652,61.0919,4.32143,18.2857,31.6875,1.27231,0.5,0.5,0.0,113939.0,52675.8,115868.0,-1.3779900000000002e-10,0,211007.0,
5012,Overamstel,50,450.269,15.7565,24.0543,5.7931,3.3448300000000004,15.5666,1.0089700000000001,1.0,0.0,0.0,386376.0,35853.0,21955.2,-3.61661e-10,0,401118.0,
5012,Overamstel,51,451.17900000000003,16.1368,63.1367,2.42857,7.214289999999999,31.9208,1.18242,0.5,0.5,0.0,481521.0,50623.8,45856.9,1.7868900000000002e-10,0,689024.0,
5013,Van_der_Madeweg,50,450.0,16.369,55.5052,25.4483,3.68966,68.8384,0.99395,1.0,0.0,0.0,523281.0,28811.3,24867.0,2.13319e-10,0,524488.0,
5013,Van_der_Madeweg,253,447.236,16.4648,201.178,6.7333300000000005,24.9667,79.5545,0.9116920000000001,0.933333,0.0,0.0666667,440917.0,48916.5,173266.0,3.19492e-10,0,472754.0,
5013,Van_der_Madeweg,254,450.884,15.6369,214.278,11.1333,7.83333,84.0084,0.889576,0.9,0.0,0.1,433873.0,41120.3,51914.0,-6.456669999999999e-10,0,452831.0,
5014,Station_Duivendrecht,50,450.05300000000005,15.9675,54.3154,0.0,2.1724099999999997,68.6239,0.9451790000000001,1.0,0.0,0.0,70338.8,24578.0,13955.4,-3.34914e-11,0,90171.0,
5014,Station_Duivendrecht,254,450.939,15.7969,210.905,0.0,2.86667,83.9108,0.941941,0.9,0.0,0.1,105836.0,39030.7,18936.3,-7.05906e-11,0,143093.0,
5015,Strandvliet,50,454.164,15.9726,65.2642,0.0,2.6071400000000002,68.4516,0.973786,1.0,0.0,0.0,183060.0,23391.3,16277.0,1.6494400000000004e-10,0,196129.0,
5015,Strandvliet,254,452.545,15.8373,236.079,0.0,3.1724099999999997,86.9434,0.875207,0.793103,0.0,0.20689699999999997,309499.0,36545.5,20028.5,-6.19966e-11,0,340121.0,
5016,Station_Bijlmer_ArenA,50,450.65,17.4556,56.5215,0.0,6.35714,76.4042,1.2969,1.0,0.0,0.0,126241.0,18822.2,39642.5,-1.53106e-10,0,137810.0,
5016,Station_Bijlmer_ArenA,254,452.634,16.5259,259.79,0.0,15.3448,85.6314,1.28132,0.758621,0.0,0.241379,287282.0,30922.0,97566.0,-3.79021e-11,0,307251.0,
5017,Bullewijk,50,450.74300000000005,16.3865,167.5,0.0,1.35714,76.6157,0.9477909999999999,1.0,0.0,0.0,171042.0,15088.1,8383.44,8.89191e-11,0,176824.0,
5017,Bullewijk,254,452.796,15.8731,379.978,0.0,3.13793,85.8318,0.878868,0.0344828,0.0,0.965517,291687.0,24839.3,20304.2,-7.77263e-11,0,300700.0,
5018,Station_Holendrecht,50,452.724,16.5787,183.804,0.0,1.07407,81.4116,0.9984430000000001,1.0,0.0,0.0,109889.0,10704.9,6273.0,3.84386e-11,0,114564.0,
5018,Station_Holendrecht,254,454.205,15.9552,389.779,0.0,2.57143,85.1989,0.8779020000000001,0.0,0.0,1.0,172172.0,17667.9,15436.5,-6.11049e-11,0,180348.0,
5019,Reigersbos,50,452.564,16.5945,270.952,0.0,0.22222199999999998,77.632,0.957118,0.666667,0.0,0.333333,86142.1,5210.43,1111.0,-2.12168e-11,0,86784.9,
5019,Reigersbos,254,454.551,15.9472,483.779,0.0,0.464286,86.8466,0.899753,0.0,0.0,1.0,149540.0,8101.37,2676.5,-5.77334e-11,0,149759.0,
5020,Gein,50,452.724,16.456,287.767,0.0,0.0,78.6846,0.9870969999999999,0.518519,0.0,0.48148100000000005,37933.6,0.0,0.0,0.0,0,36036.9,
5020,Gein,254,454.205,15.908,495.314,0.0,0.0,82.7551,0.8845629999999999,0.0,0.0,1.0,58064.6,0.0,0.0,0.0,0,55161.4,
5101,Westwijk,51,449.98400000000004,17.1345,0.11042,0.0,27.875,2.1179200000000002,1.95365,1.0,0.0,0.0,0.0,16736.1,200700.0,-4.87788e-12,0,0.0,
5102,Sacharovlaan,51,449.969,15.7788,2.17401,0.0,3.53125,3.4757800000000003,0.945148,1.0,0.0,0.0,36572.0,15833.0,25446.7,-2.80647e-11,0,49784.7,
5103,Spinnerij,51,450.097,15.7402,4.92556,0.0,1.6774200000000001,4.981269999999999,0.922861,1.0,0.0,0.0,40549.0,16462.9,11706.6,-1.5284e-10,0,54161.3,
5104,Poortwachter,51,450.13,15.8077,8.09967,0.0,3.6129,6.568630000000001,0.9452010000000001,1.0,0.0,0.0,104939.0,18147.2,25203.8,-1.1501000000000001e-10,0,116932.0,
5105,Brink,51,450.162,15.7025,11.292,0.0,0.741935,8.117569999999999,0.916061,1.0,0.0,0.0,46576.0,18217.1,5166.99,-5.10081e-11,0,61553.4,
5106,Meent,51,450.195,15.7168,14.5894,0.0,0.8709680000000001,9.71671,0.9314049999999999,1.0,0.0,0.0,47355.0,18409.6,6094.54,-2.02958e-10,0,62476.4,
5107,Gondel,51,450.227,15.7103,17.8727,0.0,1.16129,11.3343,0.934983,1.0,0.0,0.0,47765.0,18861.8,8180.21,-8.33627e-11,0,63295.5,
5108,Marne,51,450.26,15.702,21.1623,0.0,0.7741939999999999,12.9694,0.9403040000000001,1.0,0.0,0.0,48954.0,19166.0,5420.88,-2.3922e-10,0,64714.0,
5109,Sportlaan,51,450.292,15.8316,24.4603,0.0,4.06452,14.47,0.8979450000000001,1.0,0.0,0.0,49774.0,20982.0,28320.2,-2.32138e-10,0,67218.2,
5110,Ouderkerkerlaan,51,450.709,15.91,27.5791,0.0,5.5,16.2636,1.0110700000000001,1.0,0.0,0.0,53669.0,23200.1,37249.3,-1.4588900000000002e-10,0,73025.6,
5111,Amstelveen_centrum,51,450.78,15.8087,30.6691,0.0,3.16667,17.9119,0.9758680000000001,1.0,0.0,0.0,144632.0,24001.9,21410.5,-1.37019e-10,0,160202.0,
5112,Oranjebaan,51,450.851,15.7842,33.8605,0.0,2.63333,19.5041,0.9319219999999999,1.0,0.0,0.0,61541.0,24684.7,17763.2,-2.9548299999999997e-10,0,81914.4,
5113,Onderuit,51,450.92199999999997,15.682,37.0762,0.0,0.43333299999999997,21.1349,0.942724,1.0,0.0,0.0,63427.0,24560.5,2954.88,-7.70051e-11,0,83588.1,
5114,Zonnestein,51,450.99300000000005,15.7448,40.3943,0.0,1.6,22.7721,0.948946,0.966667,0.0333333,0.0,63878.0,24736.1,10918.3,6.18297e-11,0,84183.4,
5115,Kronenburg,51,451.064,15.7803,43.6495,0.0,3.23333,24.3755,0.9492209999999999,0.933333,0.0666667,0.0,63796.0,26043.3,21816.7,-1.9746e-11,0,85347.3,
5116,Uilenstede,51,450.339,15.7583,47.349,0.0,3.7586199999999996,26.0872,0.9223629999999999,0.793103,0.20689699999999997,0.0,164731.0,27416.3,24601.9,-1.44791e-11,0,182540.0,
5117,Van_Boshuizenstraat,51,450.361,15.8752,50.5908,0.0,5.51724,27.6616,0.973368,0.7241380000000001,0.275862,0.0,70356.0,29432.4,36025.8,2.08065e-10,0,95294.1,
5118,A.J._Ernststraat,51,450.38199999999995,15.8662,53.7156,0.0,5.68966,29.2187,0.93968,0.517241,0.482759,0.0,183517.0,31446.1,37199.4,1.26304e-10,0,209783.0,
5119,De_Boelelaan/VU,51,450.403,16.858,56.8494,0.0,21.4138,30.7179,1.55055,0.482759,0.517241,0.0,80032.0,44029.1,140017.0,-6.56577e-11,0,135694.0,
5120,Spaklerweg,51,453.686,15.9057,42.5967,0.0,4.92593,65.8586,0.9504610000000001,0.9629629999999999,0.037037,0.0,733615.0,49230.5,28998.0,-2.9538299999999994e-10,0,1033440.0,
5120,Spaklerweg,53,450.342,15.8163,21.256999999999998,0.0,5.33333,9.69744,0.791986,1.0,0.0,0.0,199273.0,33114.3,36071.7,2.92584e-11,0,220768.0,
5120,Spaklerweg,54,450.05,15.5647,22.6705,0.0,5.4,5.27663,0.771378,1.0,0.0,0.0,372185.0,59639.7,36466.0,4.35385e-12,0,556097.0,
5121,Amstelstation,51,453.69,16.4768,42.6559,0.0,9.48148,65.3347,1.29065,0.9629629999999999,0.037037,0.0,126649.0,47399.5,53767.3,6.70664e-10,0,225888.0,
5121,Amstelstation,53,450.213,16.2025,24.4406,0.0,12.6,9.69465,1.4352,1.0,0.0,0.0,85403.0,33794.0,85378.7,-1.9014700000000004e-10,0,113237.0,
5121,Amstelstation,54,450.085,15.8388,26.1057,0.0,10.9667,5.29954,0.8426549999999999,1.0,0.0,0.0,155349.0,55465.0,74034.8,4.22927e-10,0,270042.0,
5122,Wibautstraat,51,453.75300000000004,16.1474,42.4158,0.0,7.77778,65.3029,1.05142,0.925926,0.0740741,0.0,282295.0,44683.9,45857.9,-1.36454e-10,0,411039.0,
5122,Wibautstraat,53,450.16,15.8253,27.2382,0.0,10.8,9.46068,0.8267690000000001,1.0,0.0,0.0,202606.0,34623.2,73057.4,1.42641e-12,0,226065.0,
5122,Wibautstraat,54,450.089,15.8028,29.267,0.0,9.26667,5.56858,0.819997,1.0,0.0,0.0,345319.0,55846.5,62636.6,6.04755e-10,0,498128.0,
5123,Weesperplein,51,453.80300000000005,17.1542,42.3362,0.0,18.7778,64.91199999999999,2.06281,0.851852,0.148148,0.0,111028.0,49651.3,109438.0,-4.31159e-10,0,198528.0,
5123,Weesperplein,53,450.12,16.6428,30.4128,0.0,25.1667,9.42177,1.27068,1.0,0.0,0.0,89421.0,40862.9,170401.0,3.8288300000000005e-10,0,133429.0,
5123,Weesperplein,54,450.19800000000004,16.495,32.1763,0.0,24.0,5.732480000000001,1.34643,1.0,0.0,0.0,140630.0,53264.3,156877.0,1.18595e-10,0,235735.0,
5124,Waterlooplein,51,452.23400000000004,16.298,41.8308,0.0,8.96154,65.6967,1.1929100000000001,0.8461540000000001,0.153846,0.0,273104.0,45057.8,51394.3,4.27855e-10,0,386627.0,
5124,Waterlooplein,53,450.069,16.089000000000002,32.77,0.0,12.4333,10.0091,1.20112,1.0,0.0,0.0,234421.0,41772.4,84178.6,-2.2801800000000001e-10,0,315842.0,
5124,Waterlooplein,54,450.221,15.8572,34.6813,0.0,11.069,6.29922,0.908056,1.0,0.0,0.0,308959.0,49201.1,72455.7,5.5438e-10,0,408191.0,
5125,Nieuwmarkt,51,452.332,16.9337,42.0661,0.0,2.65385,65.9653,1.5185899999999999,0.8461540000000001,0.153846,0.0,109306.0,30851.6,15165.2,-1.1043799999999999e-10,0,167084.0,
5125,Nieuwmarkt,53,449.712,16.2012,35.7183,0.0,3.4482800000000005,10.2055,1.06269,1.0,0.0,0.0,102008.0,30057.8,22590.7,2.8725599999999996e-10,0,148746.0,
5125,Nieuwmarkt,54,450.264,16.0531,37.8241,0.0,3.2758599999999998,6.9966800000000005,1.08721,1.0,0.0,0.0,124927.0,34710.7,21400.7,2.56593e-10,0,175519.0,
5126,Centraal_Station,51,452.43,18.2486,42.7331,0.0,0.0,66.2362,2.3702799999999997,0.807692,0.19230799999999998,0.0,172483.0,0.0,0.0,0.0,0,186094.0,
5126,Centraal_Station,53,449.655,16.7098,39.5271,0.0,0.0,11.2085,1.8132,1.0,0.0,0.0,179082.0,0.0,0.0,0.0,0,170128.0,
5126,Centraal_Station,54,450.30800000000005,16.7516,41.781000000000006,0.0,0.0,7.58178,1.5701100000000001,1.0,0.0,0.0,210179.0,0.0,0.0,0.0,0,199670.0,
5301,Gaasperplas,53,449.98400000000004,15.7537,0.11095999999999999,0.0,7.15625,1.5895,0.936632,1.0,0.0,0.0,0.0,3645.57,51525.0,-1.74083e-11,0,0.0,
5302,Kraaiennest_station,53,449.969,15.7439,3.13538,0.0,5.9375,3.16771,0.941579,1.0,0.0,0.0,9389.0,6573.17,42739.7,-3.4763300000000004e-12,0,15164.1,
5303,Station_Ganzenhoef,53,450.097,15.9164,6.3007800000000005,0.0,11.7097,4.74903,0.94781,1.0,0.0,0.0,41814.0,12086.5,81709.1,-8.57376e-11,0,51205.5,
5304,Verrijn_Stuartweg,53,450.13,15.9429,9.38437,0.0,13.7742,6.3541,0.9726520000000001,1.0,0.0,0.0,30668.0,18952.1,96123.7,-2.17e-11,0,47139.1,
5305,Station_Diemen-Zuid,53,450.162,15.9114,12.4414,0.0,10.8387,7.92172,0.949851,1.0,0.0,0.0,117968.0,22852.0,75579.4,1.58451e-11,0,133779.0,
5306,Venserpolder,53,450.195,15.9039,15.53,0.0,11.3226,9.51877,0.955981,1.0,0.0,0.0,57933.0,27637.8,79084.1,-2.52374e-10,0,81292.3,
25001,Isolatorweg,250,444.389,15.66,435.249,0.0,0.0,136.417,0.948574,0.0740741,0.0,0.925926,24728.3,0.0,0.0,0.0,0,23491.9,
25002,Station_Sloterdijk,250,444.418,18.8281,353.249,0.0,0.296296,136.986,2.79327,0.259259,0.0,0.740741,301323.0,4239.7,2171.5,1.21965e-11,0,290284.0,
25003,Burg_De_Vlugtlaan,250,444.45,16.6693,339.471,0.0,5.55556,137.359,1.0760299999999998,0.296296,0.0,0.703704,366737.0,43801.5,36203.0,3.05555e-10,0,430722.0,
25004,Jan_van_Galenstraat,250,444.50199999999995,16.8531,327.94,0.0,7.0,136.708,1.29256,0.333333,0.0,0.666667,270456.0,54683.1,47169.5,2.94351e-10,0,367036.0,
25005,Postjesweg,250,447.881,16.3259,289.066,0.0,3.8928599999999998,100.471,1.11386,0.535714,0.0,0.464286,476180.0,58900.2,26199.2,-8.14211e-11,0,644068.0,
25006,Station_Lelylaan,250,446.75,16.7725,273.957,0.0,10.75,95.0845,1.1411799999999999,0.571429,0.0,0.428571,413833.0,69576.2,70245.5,3.96664e-10,0,598991.0,
25007,Heemstedestraat,250,446.217,16.6407,235.1,0.0,4.89286,94.3585,1.35346,0.75,0.0,0.25,706168.0,71408.7,31650.0,-1.5457499999999998e-10,0,1002330.0,
25008,Henk_Sneevlietweg,250,445.86300000000006,16.9316,190.95,0.0,14.6071,94.1869,1.5772899999999999,1.0,0.0,0.0,879728.0,82932.1,94990.0,-4.55715e-10,0,1246470.0,
25009,Amstelreenseweg,250,452.635,17.7663,110.473,0.0,32.4828,82.2075,2.6905799999999997,1.0,0.0,0.0,824208.0,91839.4,219675.0,-3.70779e-10,0,1135740.0,
25010,Station_Zuid,250,445.51099999999997,18.7256,67.4802,16.9667,36.7667,72.4723,3.00133,1.0,0.0,0.0,628929.0,83790.3,253530.0,-3.0726e-10,0,840554.0,
25010,Station_Zuid,251,451.173,17.6951,286.7,18.4,18.4333,127.495,2.48368,0.566667,0.0,0.43333299999999997,493972.0,54816.6,136971.0,-4.39284e-10,0,702465.0,
25011,Station_RAI,250,449.591,17.3916,15.5907,14.3,26.0667,8.96744,1.9957099999999999,1.0,0.0,0.0,506475.0,66596.1,176473.0,1.6766099999999995e-10,0,616509.0,
25011,Station_RAI,251,450.776,16.8163,206.227,12.4333,16.3667,85.9047,1.63476,0.9,0.0,0.1,395874.0,48196.7,120388.0,2.2775e-10,0,540789.0,
25012,Overamstel,250,449.592,16.0035,13.9349,8.96667,9.7,8.6131,0.801962,1.0,0.0,0.0,307949.0,51171.6,65623.6,-2.12825e-11,0,366151.0,
25012,Overamstel,251,450.846,16.1264,209.111,6.1,10.5333,84.98100000000001,1.08023,0.9,0.0,0.1,421577.0,40526.6,76659.0,2.79964e-10,0,541526.0,
25013,Van_der_Madeweg,250,449.54900000000004,16.7004,13.2648,12.0968,10.5484,8.538039999999999,1.29925,1.0,0.0,0.0,129232.0,53300.8,73845.5,2.29555e-10,0,192745.0,
25013,Van_der_Madeweg,53,450.205,16.3115,18.6262,10.3548,18.6774,9.8916,1.17476,1.0,0.0,0.0,275149.0,33558.6,130214.0,-5.48184e-12,0,293272.0,
25013,Van_der_Madeweg,54,450.065,15.5079,19.1784,16.1333,0.0,5.000780000000001,0.88064,1.0,0.0,0.0,154160.0,56384.1,0.0,2.3296e-10,0,272140.0,
25014,Station_Duivendrecht,250,449.485,17.1249,51.6346,13.2258,4.83871,8.68646,1.6611099999999999,1.0,0.0,0.0,409353.0,57707.2,33921.5,2.0406799999999998e-10,0,583189.0,
25014,Station_Duivendrecht,54,449.99699999999996,16.2766,43.5451,1.73333,15.7333,4.8779900000000005,1.40891,1.0,0.0,0.0,380972.0,64885.0,106136.0,1.79588e-10,0,577742.0,
25015,Strandvliet,250,449.529,17.4406,9.92662,11.7097,17.6452,7.86977,2.1537,1.0,0.0,0.0,168879.0,77956.8,123374.0,3.90497e-11,0,315495.0,
25015,Strandvliet,54,450.157,16.0053,13.5475,1.58065,16.0323,4.51561,0.9330219999999999,1.0,0.0,0.0,135874.0,61354.3,111842.0,2.73342e-10,0,247544.0,
25016,Station_Bijlmer_ArenA,250,449.625,20.8215,51.3725,21.871,69.9355,6.775339999999999,4.93877,1.0,0.0,0.0,257247.0,104106.0,488655.0,-2.37264e-10,0,377983.0,
25016,Station_Bijlmer_ArenA,54,450.108,17.222,48.2305,15.4194,52.0,3.7946699999999995,1.8125,1.0,0.0,0.0,199172.0,61860.2,362484.0,-1.65112e-10,0,265791.0,
25017,Bullewijk,250,449.708,17.3112,6.9386600000000005,6.93548,29.4194,4.68037,2.3111099999999998,1.0,0.0,0.0,177356.0,48791.5,205367.0,-1.22604e-11,0,214840.0,
25017,Bullewijk,54,450.095,15.9841,8.753630000000001,5.0,20.6129,3.09469,0.888125,1.0,0.0,0.0,137158.0,32233.7,143729.0,1.6182299999999996e-10,0,160922.0,
25018,Station_Holendrecht,250,449.83099999999996,18.1562,6.17424,9.71875,43.25,3.29904,2.86508,1.0,0.0,0.0,43026.0,36564.9,311289.0,-1.8809099999999998e-10,0,75611.3,
25018,Station_Holendrecht,54,450.028,16.552,6.3056,8.54839,33.9355,2.6802599999999996,1.31705,1.0,0.0,0.0,32623.0,23569.0,236629.0,-3.5179e-11,0,53382.4,
25019,Reigersbos,250,449.916,16.05,3.22428,1.15625,7.28125,2.35489,0.8386110000000001,1.0,0.0,0.0,20402.0,6985.8,52415.2,2.27374e-12,0,26018.4,
25019,Reigersbos,54,450.04699999999997,15.8913,3.19686,0.709677,5.41935,1.7456200000000002,0.822142,1.0,0.0,0.0,16059.0,5128.05,37813.1,-6.47393e-11,0,20127.7,
25020,Gein,250,449.918,15.6655,0.11020999999999999,1.34375,6.3125,1.6798099999999998,1.0258,1.0,0.0,0.0,0.0,3223.12,45450.0,-3.41078e-11,0,0.0,
25020,Gein,54,450.001,15.6733,0.11020999999999999,0.53125,4.96875,0.935293,0.7299220000000001,1.0,0.0,0.0,0.0,2482.62,35775.0,-1.4170000000000001e-11,0,0.0,
25101,Westwijk,251,456.36400000000003,16.2452,897.3810000000001,0.0,0.0,132.97,1.06279,0.0,0.0,1.0,35453.1,0.0,0.0,0.0,0,33680.5,
25102,Sacharovlaan,251,456.421,15.7755,875.982,0.0,0.08,132.60399999999998,0.940522,0.0,0.0,1.0,54862.5,8628.91,553.5,-6.73932e-11,0,60316.9,
25103,Spinnerij,251,456.80699999999996,15.6631,861.461,0.0,0.12,124.441,1.04329,0.0,0.0,1.0,110006.0,13779.8,707.0,1.57035e-10,0,117596.0,
25104,Poortwachter,251,458.19300000000004,15.9703,786.421,0.0,0.36,131.80100000000002,0.8450200000000001,0.0,0.0,1.0,140149.0,14776.3,2316.5,8.06466e-11,0,147179.0,
25105,Brink,251,459.565,15.7324,767.255,0.0,0.0384615,128.683,1.01163,0.0,0.0,1.0,78921.6,17501.9,246.0,2.02526e-10,0,93509.4,
25106,Meent,251,459.564,15.8464,745.255,0.0,0.11538499999999999,129.52,0.92605,0.0,0.0,1.0,87381.2,19150.4,758.5,1.16579e-10,0,103896.0,
25107,Gondel,251,459.527,15.6568,723.255,0.0,0.230769,128.99,0.977233,0.0,0.0,1.0,97860.6,20612.8,1414.5,-2.35918e-11,0,115766.0,
25108,Marne,251,452.629,15.794,697.842,0.0,0.0,131.55,1.03083,0.0,0.0,1.0,119926.0,23991.4,0.0,-1.1409e-10,0,149239.0,
25109,Sportlaan,251,452.702,15.8476,675.842,0.0,0.777778,130.67700000000002,1.1232,0.0,0.0,1.0,132114.0,28903.6,4940.5,2.74619e-10,0,175515.0,
25110,Ouderkerkerlaan,251,452.624,15.6834,653.842,0.0,1.8888900000000002,130.828,0.911633,0.0,0.0,1.0,134802.0,31065.6,12546.0,-6.86864e-11,0,182804.0,
25111,Amstelveen_centrum,251,452.64599999999996,15.4835,631.842,0.0,1.03704,131.204,0.8192870000000001,0.0,0.0,1.0,137287.0,31576.3,6662.5,-3.5811400000000002e-12,0,187255.0,
25112,Oranjebaan,251,452.67699999999996,15.9967,609.842,0.0,0.62963,131.231,0.905691,0.0,0.0,1.0,143395.0,33683.3,4387.0,-1.15321e-10,0,197989.0,
25113,Onderuit,251,452.699,15.4949,587.842,0.0,0.148148,131.275,0.7888350000000001,0.0,0.0,1.0,142700.0,33642.6,943.0,-1.48765e-10,0,204972.0,
25114,Zonnestein,251,454.546,15.7363,570.7080000000001,0.0,0.9285709999999999,122.34200000000001,0.9059809999999999,0.0,0.0,1.0,163386.0,37397.3,6262.0,1.66274e-10,0,238316.0,
25115,Kronenburg,251,454.11699999999996,15.5284,546.529,0.0,0.607143,132.507,1.06665,0.0,0.0,1.0,323456.0,38238.4,4674.0,2.35742e-10,0,437460.0,
25116,Uilenstede,251,454.139,15.6392,524.529,0.0,0.857143,132.725,0.8778729999999999,0.0,0.0,1.0,170022.0,40774.1,6211.5,-1.4374799999999998e-10,0,260658.0,
25117,Van_Boshuizenstraat,251,454.523,15.6881,507.708,0.0,1.0714299999999999,122.53399999999999,0.7525,0.0,0.0,1.0,368401.0,42889.5,7373.0,-1.8477500000000002e-10,0,543090.0,
25118,A.J._Ernststraat,251,454.49199999999996,15.6627,425.708,0.0,3.5,122.306,0.9100209999999999,0.035714300000000004,0.0,0.9642860000000001,540659.0,45955.2,23785.5,-1.1059100000000001e-10,0,781439.0,
25119,De_Boelelaan/VU,251,456.39599999999996,15.9267,344.963,0.0,6.75862,120.28200000000001,0.743189,0.344828,0.0,0.655172,429165.0,46756.6,48631.5,3.8793300000000005e-10,0,630457.0,
25120,Spaklerweg,251,452.849,16.1488,128.121,9.58065,3.5161300000000004,83.3448,1.08049,1.0,0.0,0.0,322763.0,37704.0,25505.4,-7.343460000000001e-12,0,435881.0,
25120,Spaklerweg,253,449.35699999999997,15.758,121.057,6.03226,5.0,79.1232,0.7625069999999999,1.0,0.0,0.0,308396.0,38228.2,36567.3,-2.1834400000000003e-10,0,329293.0,
25120,Spaklerweg,254,451.001,15.9592,133.463,4.933330000000001,9.5,84.2519,0.9456469999999999,1.0,0.0,0.0,305648.0,37181.2,64396.7,1.1852600000000002e-10,0,325688.0,
25121,Amstelstation,251,452.48900000000003,16.8538,95.8423,17.9032,14.6129,53.0856,1.38913,1.0,0.0,0.0,282649.0,42290.0,103651.0,2.91958e-10,0,397706.0,
25121,Amstelstation,253,452.461,16.0825,95.4874,14.7742,17.7419,52.9386,0.967217,1.0,0.0,0.0,284268.0,39980.9,124930.0,-2.69171e-11,0,308036.0,
25121,Amstelstation,254,449.62800000000004,16.4564,98.36399999999999,14.6129,21.129,53.6414,1.14481,1.0,0.0,0.0,229031.0,36763.9,149529.0,1.61238e-10,0,252505.0,
25122,Wibautstraat,251,452.82099999999997,16.3673,78.8427,5.54839,11.7742,51.4454,1.3702299999999998,1.0,0.0,0.0,209338.0,40827.1,82971.5,2.6386900000000003e-10,0,301911.0,
25122,Wibautstraat,253,451.13,16.0668,78.1007,7.4375,9.15625,51.3469,1.04195,1.0,0.0,0.0,215860.0,38422.3,66306.5,-5.33298e-11,0,241568.0,
25122,Wibautstraat,254,449.275,15.9291,81.2943,7.51613,7.967739999999999,51.17,0.789606,1.0,0.0,0.0,173494.0,29999.9,55954.0,-1.7820900000000002e-10,0,193319.0,
25123,Weesperplein,251,451.046,17.424,31.5038,10.9677,29.4194,29.4577,2.13289,1.0,0.0,0.0,191739.0,44743.0,206709.0,1.44027e-11,0,236591.0,
25123,Weesperplein,253,450.98800000000006,16.0839,31.0161,16.125,29.625,24.4119,1.2599,1.0,0.0,0.0,192541.0,39536.9,214132.0,2.56387e-10,0,220474.0,
25123,Weesperplein,254,451.034,16.166,30.3875,18.2903,23.8065,29.3963,0.8478870000000001,1.0,0.0,0.0,162421.0,31372.4,166611.0,-1.43629e-10,0,184104.0,
25124,Waterlooplein,251,450.907,16.4864,15.1319,4.84375,13.125,18.936,1.37816,1.0,0.0,0.0,77893.6,27606.8,94774.0,4.10374e-11,0,100225.0,
25124,Waterlooplein,253,450.915,16.0955,15.3194,8.03125,13.9375,18.947,0.8866040000000001,1.0,0.0,0.0,81915.4,26512.0,100318.0,9.797499999999999e-11,0,103006.0,
25124,Waterlooplein,254,450.43300000000005,15.5834,15.7202,9.64516,10.5484,19.7131,0.76961,1.0,0.0,0.0,72199.4,21146.3,73374.0,5.82716e-11,0,88678.4,
25125,Nieuwmarkt,251,450.091,16.5297,2.90732,4.3125,15.3125,2.77346,1.39205,1.0,0.0,0.0,35271.2,22735.4,110348.0,1.7471200000000003e-10,0,55106.3,
25125,Nieuwmarkt,253,450.084,16.0422,3.5529599999999997,8.0625,15.2188,1.5420200000000002,0.958777,1.0,0.0,0.0,36071.0,21547.6,109564.0,1.03803e-10,0,54737.7,
25125,Nieuwmarkt,254,450.00199999999995,16.1345,3.5886199999999997,8.03125,13.0625,2.29422,1.2307700000000001,1.0,0.0,0.0,31792.0,18987.7,94057.6,-6.35509e-11,0,48240.8,
25126,Centraal_Station,251,450.033,17.0415,0.11069000000000001,8.0625,27.5625,1.85749,1.99885,1.0,0.0,0.0,0.0,16513.8,198450.0,4.59046e-11,0,0.0,
25126,Centraal_Station,253,450.045,16.3463,0.11069000000000001,13.5,28.1875,1.44525,1.17775,1.0,0.0,0.0,0.0,15334.6,202950.0,-2.12221e-11,0,0.0,
25126,Centraal_Station,254,450.014,16.3107,0.11069000000000001,14.375,24.8438,1.2686899999999999,1.08007,1.0,0.0,0.0,0.0,13358.3,178875.0,-3.63336e-11,0,0.0,
25301,Gaasperplas,253,452.621,15.9147,330.23900000000003,0.0,0.0,76.3043,0.9126129999999999,0.344828,0.0,0.655172,20909.2,0.0,0.0,0.0,0,19863.7,
25302,Kraaiennest_station,253,452.525,15.8046,319.411,0.0,0.448276,75.4603,0.9386899999999999,0.413793,0.0,0.5862069999999999,104071.0,6209.84,3075.0,7.75202e-12,0,104767.0,
25303,Station_Ganzenhoef,253,447.309,16.1805,306.392,0.0,0.633333,80.2831,1.25253,0.5,0.0,0.5,133594.0,15051.8,4242.0,1.29079e-10,0,141214.0,
25304,Verrijn_Stuartweg,253,448.069,15.6196,276.768,0.0,2.76667,70.9111,0.9266610000000001,0.766667,0.0,0.23333299999999998,212164.0,28687.9,18901.0,-6.16414e-11,0,228809.0,
25305,Station_Diemen-Zuid,253,447.339,15.88,264.168,0.0,1.76667,79.5947,0.777227,0.766667,0.0,0.23333299999999998,244407.0,29263.2,12423.0,1.52305e-10,0,263983.0,
25306,Venserpolder,253,447.286,15.9485,198.63299999999998,0.0,1.16667,79.1318,0.999908,0.933333,0.0,0.0666667,292770.0,36638.2,8027.0,-3.03046e-11,0,357856.0,
